ID;Name;Standort;Breitengrad;Längengrad;Identifier
1;Triton Werke Hamburg;Hamburg;53543;9998;https://www.wikidata.org/wiki/Q107017368
2;Junkers & Co. Dessau;Dessau;51.83066;12.24306;https://www.wikidata.org/wiki/Q1713670
3;Imperial Bünde Westf.;Bünde;52.2031;8.5814;https://www.wikidata.org/wiki/Q1660275
4;Dt. Spiegelglas A. G.;Freden (Leine);51.92825;9.89697;https://www.wikidata.org/wiki/Q42302014
5;Staatliches Bauhaus Weimar;Weimar;50.9778;11.3297;https://www.wikidata.org/wiki/Q124354
6;Steingutfabrik Velten-Vordamm;Velten-Vordamm;52.68812;13.17793;https://www.wikidata.org/wiki/Q48755937
